City_ID,City,Lat,Lng,Max Temp,Humidity,Cloudiness,Wind Speed,Country,Date
0,wailua homesteads,22.0669,-159.378,22.32,78,20,4.63,US,1722507095
1,jamestown,42.097,-79.2353,19.88,99,100,2.06,US,1722507067
2,hermanus,-34.4187,19.2345,16.56,57,0,0.93,ZA,1722507097
3,puerto natales,-51.7236,-72.4875,1.25,98,100,0.56,CL,1722507098
4,kodiak,57.79,-152.4072,8.73,81,0,3.09,US,1722507099
5,kapuskasing,49.4169,-82.4331,18.05,88,75,1.54,CA,1722507007
6,bijar,35.8668,47.6051,28.9,15,0,1.62,IR,1722506872
7,blackmans bay,-43.0167,147.3167,7.07,91,100,3.03,AU,1722507102
8,along,28.1667,94.7667,32.07,55,41,2.44,IN,1722507103
9,kristiansund,63.1115,7.732,16.12,74,75,1.03,NO,1722507104
10,port-aux-francais,-49.35,70.2167,3.8,87,58,12.28,TF,1722507105
11,ribeira grande,38.5167,-28.7,24.22,83,40,1.54,PT,1722507106
12,margaret river,-33.95,115.0667,11.66,58,90,5.45,AU,1722507107
13,tazacorte,28.629,-17.9293,23.42,83,40,7.2,ES,1722507109
14,punta arenas,-53.15,-70.9167,5.06,93,75,5.14,CL,1722507110
15,aykhal,66.0,111.5,14.62,41,31,3.31,RU,1722507111
16,edmundston,47.3737,-68.3251,21.22,100,100,1.54,CA,1722507112
17,waitangi,-43.9535,-176.5597,7.68,73,33,8.8,NZ,1722507113
18,murzuq,25.9155,13.9184,34.91,20,33,5.18,LY,1722507114
19,crane,31.3974,-102.3501,25.95,47,5,7.2,US,1722507115
20,santa cruz de la palma,28.6835,-17.7642,25.08,61,40,7.2,ES,1722507116
21,ushuaia,-54.8,-68.3,2.05,98,100,2.46,AR,1722506865
22,todos santos,23.45,-110.2167,25.25,87,94,0.23,MX,1722506838
23,belmonte,-15.8631,-38.8828,21.53,87,60,2.27,BR,1722507119
24,guantanamo,20.1444,-75.2092,25.26,86,10,2.02,CU,1722507120
25,invercargill,-46.4,168.35,3.9,91,22,1.18,NZ,1722507121
26,mugia,43.1041,-9.2179,18.84,86,100,4.33,ES,1722507123
27,tiksi,71.6872,128.8694,4.0,68,78,1.85,RU,1722507124
28,iqaluit,63.7506,-68.5145,3.72,80,44,2.85,CA,1722506975
29,bethel,41.3712,-73.414,20.55,90,0,0.0,US,1722507061
30,grytviken,-54.2811,-36.5092,-7.45,71,14,4.44,GS,1722507127
31,les avirons,-21.2418,55.3394,22.87,53,0,3.6,RE,1722507128
32,albany,42.6001,-73.9662,19.64,96,38,1.94,US,1722507129
33,grand falls-windsor,48.9332,-55.6649,19.72,95,61,2.78,CA,1722507130
34,hawaiian paradise park,19.5933,-154.9731,20.33,90,20,3.09,US,1722507131
35,karratha,-20.7377,116.8463,21.15,61,94,4.53,AU,1722507132
36,adamstown,-25.066,-130.1015,20.61,89,100,7.13,PN,1722507133
37,ulladulla,-35.35,150.4667,4.32,75,88,4.62,AU,1722507134
38,nemuro,43.3236,145.575,16.22,95,100,5.55,JP,1722507135
39,taoudenni,22.6783,-3.9836,39.62,9,5,7.76,ML,1722507136
40,college,64.8569,-147.8028,10.38,86,75,2.57,US,1722507137
41,verkhnevilyuysk,63.4453,120.3167,16.92,43,35,2.41,RU,1722507139
42,thompson,55.7435,-97.8558,18.09,72,40,1.54,CA,1722507140
43,vila velha,-20.3297,-40.2925,21.08,89,40,3.09,BR,1722507008
44,alakurtti,66.9672,30.3491,12.09,90,100,3.45,RU,1722507142
45,tura,25.5198,90.2201,26.34,89,100,4.73,IN,1722507143
46,yellowknife,62.456,-114.3525,10.79,89,69,3.58,CA,1722506977
47,ariquemes,-9.9133,-63.0408,21.66,56,0,0.58,BR,1722507145
48,qingdao,36.0986,120.3719,27.78,94,20,3.0,CN,1722506581
49,atafu village,-8.5421,-172.5159,27.66,73,98,8.53,TK,1722507147
50,ust'-kulom,61.6864,53.6902,20.75,76,66,1.65,RU,1722507148
51,igarka,67.4667,86.5833,17.47,68,92,4.89,RU,1722507149
52,kimbe,-5.5502,150.1429,25.25,87,23,2.55,PG,1722507150
53,fort st. john,56.2499,-120.8529,11.94,76,0,3.6,CA,1722507151
54,uturoa,-16.7333,-151.4333,23.37,59,1,8.09,PF,1722507152
55,guerrero negro,27.9769,-114.0611,19.0,87,1,4.2,MX,1722507154
56,puerto ayora,-0.7393,-90.3518,19.43,93,33,2.22,EC,1722507155
57,knyaze-volkonskoye,48.4642,135.4567,22.19,98,100,2.4,RU,1722507135
58,san antonio de pale,-1.4014,5.6325,22.54,74,77,5.18,GQ,1722507157
59,waingapu,-9.6567,120.2641,26.0,73,0,3.92,ID,1722507158
60,edinburgh of the seven seas,-37.0676,-12.3116,12.67,71,34,12.65,SH,1722507159
61,la paz,-16.5,-68.15,6.43,33,20,3.09,BO,1722506965
62,olonkinbyen,70.9221,-8.7187,4.22,95,100,7.54,SJ,1722507161
63,yuzhno-kurilsk,44.0306,145.8556,15.93,98,100,2.95,RU,1722507162
64,kirensk,57.7853,108.1119,21.83,46,95,2.06,RU,1722507163
65,port lincoln,-34.7333,135.8667,12.4,53,18,5.77,AU,1722507164
66,afaahiti,-17.75,-149.2833,17.93,62,27,6.42,PF,1722507165
67,palmer,42.1584,-72.3287,20.98,82,0,0.0,US,1722507166
68,bandarbeyla,9.4942,50.8122,33.54,45,13,14.06,SO,1722507167
69,kaga bandoro,6.9896,19.1874,29.84,56,58,3.45,CF,1722507169
70,vorgashor,67.5833,63.95,24.65,48,66,2.94,RU,1722507170
71,ceeldheer,3.8488,47.1806,28.77,57,20,11.34,SO,1722507171
72,arno,60.1167,18.6333,14.88,53,53,6.16,SE,1722507172
73,lagos,6.5833,3.75,27.18,71,68,4.23,NG,1722506733
74,enewetak,11.3474,162.3373,29.0,75,63,5.38,MH,1722507174
75,pimenta bueno,-11.6725,-61.1936,19.98,57,0,0.28,BR,1722507175
76,west island,-12.1568,96.8225,26.99,69,75,6.17,CC,1722507176
77,ust-nera,64.5667,143.2,4.52,100,100,2.3,RU,1722507177
78,zhanaozen,43.3,52.8,32.6,21,0,7.61,KZ,1722506897
79,qui nhon,13.7667,109.2333,31.69,63,43,5.31,VN,1722507180
80,kulhudhuffushi,6.6221,73.07,28.68,78,100,5.62,MV,1722507181
81,bilibino,68.0546,166.4372,5.64,57,90,1.15,RU,1722507182
82,ilulissat,69.2167,-51.1,3.01,100,100,2.57,GL,1722507184
83,cidreira,-30.1811,-50.2056,14.12,91,86,4.8,BR,1722507185
84,salalah,17.0151,54.0924,24.48,95,100,3.09,OM,1722507186
85,zemio,5.0314,25.1361,26.16,66,95,2.04,CF,1722507187
86,anadyr,64.75,177.4833,6.67,100,75,1.0,RU,1722507188
87,tete,-16.1564,33.5867,26.05,50,75,3.09,MZ,1722507189
88,aqsay,51.1678,52.995,26.65,34,50,6.76,KZ,1722507190
89,bubaque,11.2833,-15.8333,26.89,82,41,4.0,GW,1722507053
90,nova sintra,14.8667,-24.7167,24.51,79,88,6.39,CV,1722507192
91,katsuren-haebaru,26.3369,127.8719,30.45,78,20,4.12,JP,1722507193
92,thinadhoo,0.5333,72.9333,28.95,77,87,4.4,MV,1722507194
93,majene,-3.5403,118.9707,27.76,74,42,4.21,ID,1722507195
94,vadso,70.0744,29.7487,15.09,82,100,8.75,NO,1722507196
95,weinan,34.5036,109.5089,33.75,60,1,2.82,CN,1722507197
96,curuca,-0.7289,-47.8481,22.73,98,29,0.81,BR,1722507200
97,andradas,-22.0681,-46.5692,12.4,89,2,3.25,BR,1722507096
98,lihue,21.9789,-159.3672,23.11,78,20,4.63,US,1722507202
99,jiangzi,28.95,89.6333,18.34,16,39,1.45,CN,1722507203
100,tarfaya,27.9358,-12.9218,21.53,90,38,8.62,MA,1722507204
101,ola,59.5833,151.2833,12.13,90,100,3.33,RU,1722507205
102,senanga,-16.1167,23.2667,31.01,11,0,5.21,ZM,1722507206
103,port mathurin,-19.6833,63.4167,22.74,74,76,4.51,MU,1722507207
104,papatowai,-46.5619,169.4708,5.92,81,78,1.29,NZ,1722507208
105,smidovich,48.6,133.8167,21.03,92,64,2.5,RU,1722507209
106,howrah,22.5892,88.3103,27.0,100,100,5.66,IN,1722507003
107,isafjordur,66.0755,-23.124,11.02,71,75,7.72,IS,1722507212
108,cabo san lucas,22.8909,-109.9124,28.75,77,87,0.45,MX,1722507213
109,mambajao,9.2504,124.7156,27.45,81,83,2.46,PH,1722507214
110,san julian,21.0167,-102.1667,13.77,92,98,0.75,MX,1722507215
111,hamilton,39.1834,-84.5333,21.0,93,75,2.06,US,1722507164
112,malango,-2.9627,119.9001,20.75,99,70,1.1,ID,1722507217
113,al ghayzah,16.2079,52.176,29.18,71,99,3.0,YE,1722507218
114,wewak,-3.5534,143.6268,27.31,84,54,3.34,PG,1722507219
115,mairwa,26.2333,84.15,35.85,49,100,4.71,IN,1722507220
116,manhush,47.0558,37.3107,29.67,26,1,4.57,UA,1722507221
117,qarauyl,48.9451,79.255,31.74,24,0,6.48,KZ,1722507222
118,lebu,-37.6167,-73.65,11.21,92,100,13.27,CL,1722507223
119,arroio grande,-32.2375,-53.0869,13.43,88,40,2.64,BR,1722507224
120,whitehorse,60.7161,-135.0538,9.27,90,100,1.54,CA,1722507225
121,nouadhibou,20.931,-17.0347,23.99,73,20,8.23,MR,1722507227
122,alupka,44.4167,34.05,26.22,51,0,3.98,UA,1722507228
123,lompoc,34.6391,-120.4579,11.98,96,100,1.54,US,1722507229
124,carnarvon,-24.8667,113.6333,18.32,65,8,8.74,AU,1722507230
125,taroa,8.7058,171.2275,28.54,78,11,4.93,MH,1722507231
126,st. john's,47.5649,-52.7093,19.47,94,27,3.13,CA,1722506992
127,qaqortoq,60.7167,-46.0333,6.5,73,25,2.72,GL,1722507233
128,karasburg,-28.0167,18.75,16.58,9,0,2.02,NA,1722507234
129,ouesso,1.6136,16.0517,34.39,33,41,1.75,CG,1722507235
130,antsiranana,-12.2787,49.2917,28.14,48,3,8.2,MG,1722507236
131,sao filipe,14.8961,-24.4956,24.67,82,65,2.94,CV,1722507238
132,luderitz,-26.6481,15.1594,19.0,39,0,5.25,NA,1722507239
133,borskoye,53.0333,51.7167,25.01,43,64,5.24,RU,1722507241
134,birao,10.2849,22.7882,28.41,66,90,4.21,CF,1722507242
135,olinda,-8.0089,-34.8553,25.85,69,40,5.14,BR,1722507201
136,nikolayevsk-on-amure,53.1406,140.73,14.62,99,100,1.43,RU,1722507245
137,tabuk,17.4189,121.4443,26.39,90,86,2.59,PH,1722506979
138,shchigry,51.8755,36.9043,23.9,39,65,7.07,RU,1722507248
139,akureyri,65.6835,-18.0878,15.96,59,75,2.57,IS,1722507249
140,cao bang,22.6667,106.25,26.46,96,100,1.15,VN,1722507250
141,port elizabeth,-33.918,25.5701,17.84,60,0,2.57,ZA,1722507251
142,aasiaat,68.7098,-52.8699,0.85,92,63,2.87,GL,1722507252
143,bonanza,14.0289,-84.591,21.66,99,100,0.75,NI,1722507254
144,constantia,44.1833,28.65,31.38,43,0,5.52,RO,1722507255
145,balkanabat,39.5108,54.3671,33.41,37,34,3.3,TM,1722507256
146,ilebo,-4.3167,20.5833,38.61,22,19,0.71,CD,1722507257
147,el bauga,18.262,33.9081,33.44,43,90,6.8,SD,1722507258
148,barguzin,53.6167,109.6167,23.84,59,98,3.2,RU,1722507259
149,sisimiut,66.9395,-53.6735,7.92,60,6,3.47,GL,1722507260
150,magdalena,14.1999,121.429,27.93,88,29,0.92,PH,1722507261
151,porto novo,6.4965,2.6036,27.23,72,84,5.03,BJ,1722506979
152,bella vista,36.4295,-94.2316,24.26,76,100,2.57,US,1722507264
153,merritt,50.1123,-120.7942,13.51,85,20,0.55,CA,1722507265
154,mossingen,48.4057,9.0542,25.6,58,100,4.92,DE,1722507267
155,redencao,-4.2258,-38.7306,21.54,78,2,3.25,BR,1722507268
156,tolanaro,-25.0319,46.9987,24.0,48,0,6.57,MG,1722507269
157,okhotsk,59.3833,143.3,11.8,89,100,2.47,RU,1722507270
158,salon-de-provence,43.6407,5.0954,32.13,37,0,2.57,FR,1722507271
159,tabas,33.5959,56.9244,45.29,7,6,4.21,IR,1722507272
160,shirochanka,46.6497,38.3978,28.95,29,0,5.13,RU,1722507273
161,alofi,-19.0595,-169.9187,20.94,73,40,3.09,NU,1722507274
162,chabahar,25.2919,60.643,29.17,80,53,5.13,IR,1722507275
163,acarau,-2.8856,-40.12,24.29,74,7,6.32,BR,1722507276
164,prince albert,53.2001,-105.7677,15.97,88,20,3.09,CA,1722507277
165,lobujya,27.95,86.8167,5.69,95,86,2.84,NP,1722507279
166,ribeira brava,32.65,-17.0667,28.17,79,1,3.02,PT,1722507280
167,pecan plantation,32.3604,-97.6756,24.28,82,3,0.45,US,1722507281
168,matriz de camaragibe,-9.1517,-35.5333,21.69,87,2,2.03,BR,1722507282
169,oltinko'l,40.8011,72.1634,44.56,9,0,3.53,UZ,1722507283
170,stanley,54.868,-1.6985,15.97,92,20,0.51,GB,1722507284
171,manismata,-2.4667,111.0333,26.64,92,28,1.49,ID,1722507286
172,wuchang,44.9143,127.15,24.64,96,72,3.6,CN,1722507287
173,talnakh,69.4865,88.3972,25.9,30,24,1.66,RU,1722507288
174,kapa'a,22.0752,-159.319,23.07,78,20,4.63,US,1722507289
175,takoradi,4.8845,-1.7554,24.12,87,100,4.9,GH,1722507290
176,jhusi,25.4333,81.9333,37.46,42,100,2.19,IN,1722507291
177,aioun,16.6614,-9.6149,32.53,46,90,8.65,MR,1722507293
178,avarua,-21.2078,-159.775,19.03,72,100,1.03,CK,1722507294
179,longyearbyen,78.2186,15.6401,12.91,71,0,2.06,SJ,1722507295
180,olyokminsk,60.3736,120.4264,18.53,34,17,1.81,RU,1722507296
181,bratsk,56.1325,101.6142,19.27,71,90,2.5,RU,1722507297
182,coron,11.9986,120.2043,28.15,78,88,1.63,PH,1722507298
183,huarmey,-10.0681,-78.1522,17.45,84,0,3.1,PE,1722507299
184,codrington,-38.2667,141.9667,8.39,76,75,3.27,AU,1722507301
185,iquique,-20.2208,-70.1431,15.02,76,0,2.41,CL,1722507302
186,uliastay,47.7417,96.8444,18.85,49,94,5.4,MN,1722507303
187,georgetown,5.4112,100.3354,32.91,52,20,4.63,MY,1722507304
188,bemidji,47.4736,-94.8803,17.93,100,100,2.06,US,1722507305
189,saipan,15.1355,145.701,29.39,84,0,2.57,MP,1722507307
190,gadzhiyevo,69.2551,33.3362,13.11,87,100,6.49,RU,1722507308
191,mersing,2.4312,103.8405,30.95,74,40,5.66,MY,1722507309
192,lazaro cardenas,17.9583,-102.2,26.17,82,100,1.83,MX,1722507310
193,chonchi,-42.6128,-73.8092,8.4,95,99,3.71,CL,1722507311
194,aitape,-3.1374,142.3475,26.76,89,44,3.02,PG,1722507312
195,la'ie,21.6477,-157.9253,24.19,80,87,0.89,US,1722507313
196,hasaki,35.7333,140.8333,27.22,91,100,4.28,JP,1722507314
197,opuwo,-18.0607,13.84,25.86,17,0,2.06,NA,1722507315
198,rajgarh,28.6333,75.3833,27.83,77,100,1.23,IN,1722507316
199,haiku-pauwela,20.9219,-156.3051,20.99,76,40,6.17,US,1722507317
200,dudinka,69.4058,86.1778,26.37,30,15,3.7,RU,1722507318
201,utrik,11.2278,169.8474,28.15,81,4,4.93,MH,1722507319
202,ngong,-1.3618,36.6566,20.99,48,53,2.74,KE,1722507320
203,suratgarh,29.3167,73.9,28.97,71,100,1.42,IN,1722507322
204,sitka,57.0531,-135.33,12.94,88,100,2.57,US,1722507323
205,forster,-32.1667,152.5167,10.72,91,51,6.06,AU,1722507324
206,bredasdorp,-34.5322,20.0403,14.7,59,0,0.93,ZA,1722507325
207,campestre,-21.7111,-46.2464,11.1,94,0,1.87,BR,1722507326
208,hithadhoo,-0.6,73.0833,28.97,77,67,5.1,MV,1722507327
209,new norfolk,-42.7826,147.0587,8.49,85,100,0.69,AU,1722507328
210,rongelap,11.1635,166.8941,28.38,77,1,5.14,MH,1722507329
211,sinop,41.7711,34.8709,23.24,52,2,5.38,TR,1722507330
212,mount isa,-20.7333,139.5,12.87,47,1,2.06,AU,1722507331
213,las heras,-46.5419,-68.9359,5.42,73,98,7.47,AR,1722507332
214,tshabong,-26.05,22.45,23.35,29,95,11.34,BW,1722507333
215,colonia,50.9333,6.95,22.07,84,20,1.54,DE,1722507202
216,praya,14.9215,-23.5087,27.3,65,40,5.14,CV,1722507316
217,zharkent,44.1628,80.0,38.68,11,0,0.57,KZ,1722507111
218,oranjemund,-28.55,16.4333,15.44,49,0,4.84,NA,1722507338
219,laconia,43.5279,-71.4704,21.44,94,0,3.09,US,1722507339
220,vernon,50.2581,-119.2691,18.88,60,8,1.03,CA,1722507164
221,noumea,-22.2763,166.4572,20.56,99,100,1.74,NC,1722507341
222,san andres,12.5847,-81.7006,26.01,100,40,1.03,CO,1722507342
223,mawlaik,23.6333,94.4167,24.12,99,100,0.47,MM,1722507343
224,arvayheer,46.2639,102.775,18.2,59,41,4.78,MN,1722507344
225,rajpur,22.3,74.35,27.97,80,100,7.98,IN,1722507347
226,tlahualilo de zaragoza,26.1167,-103.45,26.85,45,3,4.52,MX,1722507348
227,fuerte olimpo,-21.0415,-57.8738,20.73,43,0,2.25,PY,1722507349
228,pakuranga,-36.8833,174.9167,10.33,84,100,3.09,NZ,1722507350
229,cafayate,-26.073,-65.9761,15.96,10,100,1.71,AR,1722507352
230,manta,-0.95,-80.7333,22.88,83,100,3.6,EC,1722507353
231,namibe,-15.1961,12.1522,20.11,69,54,3.36,AO,1722507354
232,nema,57.5067,50.5011,20.35,77,67,3.01,RU,1722507355
233,gargalianoi,37.0667,21.6333,31.34,47,0,6.09,GR,1722507356
234,panguipulli,-39.6333,-72.3333,7.77,96,100,3.46,CL,1722507357
235,diebougou,10.9667,-3.25,27.66,71,100,4.51,BF,1722507358
236,bikenibeu village,1.3673,173.1241,28.98,84,20,1.03,KI,1722507359
237,sirjan,29.452,55.6814,38.71,14,24,5.29,IR,1722507360
238,tynda,55.1667,124.7167,16.12,52,70,2.83,RU,1722507361
239,chirpan,42.2,25.3333,30.24,21,0,2.25,BG,1722507362
240,remire-montjoly,4.9167,-52.2667,24.02,100,20,1.03,GF,1722507363
241,khandud,36.9513,72.318,25.08,20,0,2.75,AF,1722507074
242,ancud,-41.8697,-73.8203,8.8,92,98,7.09,CL,1722507365
243,harper,4.375,-7.7169,23.99,86,100,5.48,LR,1722507367
244,minas de matahambre,22.5887,-83.9447,24.85,87,17,1.55,CU,1722507368
245,kandahar,31.0,65.75,41.31,10,9,5.32,AF,1722507369
246,egilsstadir,65.2653,-14.3948,11.95,66,75,4.12,IS,1722507370
247,bamboo flat,11.7,92.7167,30.05,84,75,6.17,IN,1722507371
248,januaria,-15.4833,-44.3667,19.41,72,0,3.4,BR,1722507372
249,gracias,14.5833,-88.5833,20.28,100,100,0.86,HN,1722507373
250,kerikeri,-35.2268,173.9474,10.8,92,89,1.89,NZ,1722507374
251,san jose del guaviare,2.5729,-72.6459,21.35,98,97,0.94,CO,1722507375
252,mweka,-4.85,21.5667,38.26,13,33,1.23,CD,1722507376
253,lower hutt,-41.2167,174.9167,7.61,87,75,10.29,NZ,1722507377
254,usinsk,65.9939,57.5281,23.99,44,76,4.84,RU,1722507378
255,sonoita,31.85,-112.8333,29.54,48,87,3.87,MX,1722507379
256,kasongo,-4.45,26.6667,36.66,12,11,1.09,CD,1722507381
257,port alfred,-33.5906,26.891,19.54,45,3,0.45,ZA,1722507383
258,smithers,54.7804,-127.1743,10.18,93,0,0.0,CA,1722507304
259,saint-philippe,-21.3585,55.7679,24.77,62,6,1.81,RE,1722507385
260,yichun,47.7,128.9,22.83,89,100,2.08,CN,1722507386
261,santa cruz,-17.8,-63.1667,22.03,83,3,7.72,BO,1722507387
262,thames,-37.1333,175.5333,9.43,79,100,3.29,NZ,1722507388
263,kone,-21.0595,164.8658,18.29,70,100,1.56,NC,1722507389
264,fortuna,40.5982,-124.1573,13.29,96,100,0.0,US,1722507390
265,kingston,17.997,-76.7936,25.65,84,70,1.34,JM,1722506867
266,taltal,-25.4,-70.4833,12.97,80,83,0.87,CL,1722507383
267,as sulayyil,20.4607,45.5779,43.14,9,66,8.21,SA,1722507393
268,rice lake,45.5061,-91.7382,20.11,88,40,0.0,US,1722507236
269,kittila,67.6647,24.8936,14.08,88,100,4.12,FI,1722507396
270,saint george's,12.0564,-61.7485,27.33,75,9,3.83,GD,1722507397
271,sakti,22.0333,82.9667,26.49,89,100,4.7,IN,1722507398
272,praia da vitoria,38.7333,-27.0667,25.14,73,75,1.04,PT,1722507399
273,vilyuchinsk,52.9306,158.4028,14.15,96,100,0.07,RU,1722507400
274,pirane,-25.7324,-59.1088,22.72,47,4,5.13,AR,1722507401
275,eureka,40.8021,-124.1637,13.66,95,89,0.71,US,1722507402
276,badger,64.8,-147.5333,10.3,88,75,2.57,US,1722507403
277,wanning,18.8003,110.3967,29.46,78,6,5.84,CN,1722507404
278,el hadjira,32.6134,5.5126,39.27,11,0,3.27,DZ,1722507374
279,el salto,20.3333,-104.5,16.97,96,100,0.54,MX,1722507406
280,udachny,66.4167,112.4,15.26,38,6,2.16,RU,1722507407
281,balqash,46.8481,74.995,36.33,17,0,5.0,KZ,1722507408
282,bonthe,7.5264,-12.505,24.65,92,100,4.71,SL,1722507410
283,hami,42.8,93.45,35.62,18,51,4.08,CN,1722507411
284,kununurra,-15.7667,128.7333,21.99,53,54,0.0,AU,1722507412
285,grenaa,56.4158,10.8783,19.52,73,19,2.25,DK,1722507413
286,geraldton,-28.7667,114.6,13.23,82,67,2.57,AU,1722507414
287,corumba,-19.0092,-57.6533,19.75,49,0,0.93,BR,1722507415
288,paraiso,9.8383,-83.8656,17.99,100,100,0.7,CR,1722507416
289,tsiombe,-25.3,45.4833,24.99,36,0,5.3,MG,1722507417
290,ad darb,17.7229,42.2526,40.84,28,74,14.99,SA,1722507418
291,rawlins,41.7911,-107.2387,9.94,40,0,0.0,US,1722507419
292,bosaso,11.2842,49.1816,37.45,39,26,5.76,SO,1722507420
293,san lawrenz,36.0553,14.204,32.67,68,0,1.65,MT,1722507421
294,taulaga,-11.0553,-171.0883,26.82,66,100,7.33,AS,1722507423
295,sayansk,54.1088,102.1648,22.11,66,82,3.11,RU,1722507424
296,barra do corda,-5.5,-45.25,20.8,50,1,1.22,BR,1722507425
297,nuuk,64.1835,-51.7216,10.34,57,0,1.03,GL,1722507426
298,megion,61.0296,76.1136,25.01,44,34,3.8,RU,1722507427
299,la mure,44.9026,5.7866,26.76,43,0,2.22,FR,1722507428
300,moyynkum,44.2914,72.9469,39.95,12,0,6.55,KZ,1722507429
301,tongliao,43.6125,122.2653,24.74,82,75,4.96,CN,1722507430
302,piranhas,-16.4269,-51.8222,19.53,50,4,1.27,BR,1722507431
303,vilyuysk,63.7553,121.6247,16.78,42,9,2.93,RU,1722507432
304,machali,-34.1833,-70.6667,11.67,55,100,3.19,CL,1722507433
305,mount gambier,-37.8333,140.7667,7.36,77,80,2.7,AU,1722507435
306,taihecun,45.8,130.85,22.8,99,97,2.24,CN,1722507436
307,toliara,-23.35,43.6667,25.18,47,0,7.21,MG,1722507437
308,skovorodino,53.9833,123.9167,20.28,35,7,3.47,RU,1722507438
309,yatou,37.15,122.3833,28.55,83,74,5.01,CN,1722507439
310,santa sylvina,-27.8326,-61.1375,20.59,49,67,6.8,AR,1722507440
311,volokolamsk,56.0336,35.9694,17.68,79,89,5.23,RU,1722507442
312,abepura,-2.6333,140.5833,29.45,66,20,5.14,ID,1722507443
313,tado,5.266,-76.5649,23.23,98,100,1.12,CO,1722507444
314,east london,-33.0153,27.9116,20.52,28,0,0.51,ZA,1722507445
315,balikpapan,-1.2675,116.8289,28.55,74,20,1.03,ID,1722507446
316,siwa oasis,29.2041,25.5195,36.06,22,0,2.53,EG,1722507447
317,lorengau,-2.0226,147.2712,27.93,80,14,4.34,PG,1722507448
318,sao joao da barra,-21.6403,-41.0511,19.05,70,15,3.46,BR,1722507449
319,anaconda,46.1285,-112.9423,9.55,49,0,2.47,US,1722507450
320,linden,6.0,-58.3,22.03,99,71,0.31,GY,1722507451
321,rockland,41.1668,-74.0496,20.34,91,6,1.6,US,1722507452
322,umea,63.8284,20.2597,14.96,88,75,6.69,SE,1722507454
323,labytnangi,66.6572,66.4183,21.47,72,87,6.15,RU,1722507455
324,chibougamau,49.9168,-74.3659,14.79,100,20,1.54,CA,1722507456
325,sakaraha,-22.9,44.5333,24.74,24,0,4.69,MG,1722507457
326,zaozersk,69.4005,32.4476,12.03,91,100,6.55,RU,1722507458
327,gaiman,-43.2897,-65.4929,12.4,43,100,7.57,AR,1722507459
328,praia,14.9215,-23.5087,27.3,65,40,5.14,CV,1722507316
329,thunder bay,48.4001,-89.3168,17.95,100,75,0.0,CA,1722507461
330,sur,22.5667,59.5289,33.69,53,30,3.59,OM,1722507462
331,alice springs,-23.7,133.8833,14.75,21,0,3.6,AU,1722507464
332,kenai,60.5544,-151.2583,11.03,71,0,1.54,US,1722507465
333,sinaloa de leyva,25.8333,-108.2333,26.04,74,100,1.3,MX,1722507466
334,tazovsky,67.4667,78.7,17.84,77,98,3.13,RU,1722507467
335,mejit,10.2753,170.8646,28.36,80,7,5.32,MH,1722507468
336,kharp,66.8014,65.8081,20.69,78,82,5.29,RU,1722507469
337,ji'an,27.1172,114.9793,33.36,59,77,5.05,CN,1722507470
338,fort mcmurray,56.7268,-111.381,14.73,82,0,4.63,CA,1722507471
339,thurso,58.5927,-3.5259,14.14,70,89,2.05,GB,1722507472
340,coyhaique,-45.5752,-72.0662,2.34,99,100,0.8,CL,1722507390
341,la ronge,55.1001,-105.2842,16.14,82,20,5.66,CA,1722507474
342,princeville,45.7668,-61.2985,21.16,96,100,3.09,CA,1722507475
343,mariental,-24.6333,17.9667,16.74,15,0,2.43,NA,1722507476
344,dubbo,-32.25,148.6167,6.07,75,1,3.09,AU,1722507477
345,berdigestyakh,62.0989,126.6992,16.13,40,98,3.64,RU,1722507479
346,guajara mirim,-10.7828,-65.3394,22.87,53,29,1.28,BR,1722507480
347,beau vallon,-20.4189,57.6953,25.18,57,20,4.12,MU,1722507482
348,gisborne,-38.6533,178.0042,10.91,76,100,8.32,NZ,1722507190
349,khorixas,-20.3667,14.9667,22.66,18,0,2.69,NA,1722507484
350,la palma,33.8464,-118.0467,17.74,88,0,2.57,US,1722507485
351,holualoa,19.6228,-155.9522,20.32,95,99,2.37,US,1722507486
352,yelizovo,53.1873,158.3805,14.08,100,75,3.0,RU,1722507487
353,pachino,36.7186,15.0907,28.14,58,0,4.37,IT,1722507488
354,bucerias,20.75,-105.3333,27.21,85,100,3.21,MX,1722507416
355,saint-leu,-21.15,55.2833,23.99,87,18,2.58,RE,1722507490
356,griffith,41.5284,-87.4237,21.74,96,0,1.54,US,1722507491
357,zeya,53.75,127.2667,20.82,49,2,2.46,RU,1722507492
358,el charco,2.4769,-78.1105,23.92,94,100,2.28,CO,1722507494
359,christchurch,-43.5333,172.6333,2.27,89,94,1.54,NZ,1722506742
360,jucurutu,-6.0339,-37.0203,24.65,61,35,8.0,BR,1722507496
361,loreto,22.2667,-101.9667,14.47,86,6,2.03,MX,1722507497
362,barrouallie,13.2333,-61.2667,25.79,89,40,1.54,VC,1722507314
363,natal,-5.795,-35.2094,23.12,83,20,4.12,BR,1722507425
364,kabwe,-14.4469,28.4464,25.82,19,7,5.17,ZM,1722507500
365,weiser,44.251,-116.9693,19.26,34,0,2.21,US,1722507501
366,walvis bay,-22.9575,14.5053,15.94,58,0,1.89,NA,1722507503
367,touros,-5.1989,-35.4608,23.48,85,32,5.3,BR,1722507504
368,hammerfest,70.6634,23.6821,15.25,77,40,5.14,NO,1722507505
369,lata,40.1629,-8.3327,24.72,57,69,2.66,PT,1722507506
370,charters towers,-20.1,146.2667,18.44,61,100,4.53,AU,1722507507
371,barra de santo antonio,-9.4047,-35.5072,21.6,74,14,5.51,BR,1722507508
372,aral,40.5156,81.2636,37.44,18,26,3.8,CN,1722507509
373,labrador city,52.9463,-66.9114,14.95,94,20,1.54,CA,1722507510
374,ungsang-nodongjagu,42.3578,130.4622,21.56,97,88,0.79,KP,1722507511
375,rasht,37.2808,49.5832,28.9,70,75,4.12,IR,1722507512
376,gaigeturi,33.4644,126.3183,30.03,79,40,2.57,KR,1722507514
377,beni mellal,32.3373,-6.3498,29.79,45,0,1.54,MA,1722507515
378,mgandu,-5.95,34.1333,25.29,22,68,4.33,TZ,1722507516
379,tosontsengel,48.7567,98.2839,16.69,71,100,3.85,MN,1722507517
380,mongoumba,3.6415,18.5936,35.24,32,13,1.16,CF,1722507518
381,ciudad lazaro cardenas,17.9583,-102.2,26.17,82,100,1.83,MX,1722507519
382,saudarkrokur,65.7461,-19.6394,12.62,77,100,0.54,IS,1722507520
383,newman,37.3138,-121.0208,20.22,76,19,0.45,US,1722507521
384,ajuy,11.1724,123.0197,27.23,82,94,1.81,PH,1722507522
385,polyarnyy,69.1989,33.4478,13.83,85,100,6.33,RU,1722507523
386,klyuchi,52.2667,79.1667,33.23,25,42,3.47,RU,1722507524
387,inongo,-1.95,18.2667,27.02,43,7,1.13,CD,1722507525
388,chokwe,-24.5333,32.9833,26.04,47,28,1.72,MZ,1722507526
389,fisterra,42.9049,-9.2629,21.12,89,92,5.7,ES,1722507527
390,kilindoni,-7.9139,39.6668,25.05,71,16,7.35,TZ,1722507530
391,popondetta,-8.7537,148.2534,23.14,99,100,1.69,PG,1722507531
392,weno,7.4515,151.8468,28.97,79,40,0.0,FM,1722507532
393,greymouth,-42.4667,171.2,1.9,88,2,3.89,NZ,1722507533
394,ponta delgada,37.7333,-25.6667,23.4,78,20,2.57,PT,1722507534
395,lerwick,60.1545,-1.1494,15.0,83,94,4.3,GB,1722507535
396,anse-bertrand,16.4721,-61.5078,24.9,80,89,4.71,GP,1722507536
397,menongue,-14.6585,17.691,30.56,11,0,3.65,AO,1722507537
398,beijing,39.9075,116.3972,31.94,49,1,3.05,CN,1722507304
399,dryden,49.7833,-92.7503,17.16,94,20,2.06,CA,1722507539
400,kidal,18.4411,1.4078,31.72,49,96,5.53,ML,1722507540
401,feijo,-8.1642,-70.3536,20.43,58,1,0.72,BR,1722507541
402,dingzhou,38.5131,114.9956,33.06,56,0,1.72,CN,1722507544
403,alotau,-10.3069,150.4462,23.3,95,100,2.59,PG,1722507545
404,sol'-iletsk,51.1631,54.9918,26.35,35,67,7.16,RU,1722507546
405,plastun,44.7561,136.2939,21.4,97,92,0.39,RU,1722507547
406,jorpeland,59.0225,6.0408,16.69,70,62,2.3,NO,1722507548
407,eyl,7.9803,49.8164,33.77,43,43,12.9,SO,1722507549
408,valera,9.3178,-70.6036,21.73,72,89,3.32,VE,1722507415
409,cadale,2.7603,46.3222,26.62,71,17,9.66,SO,1722507551
410,greenville,35.6127,-77.3663,24.42,98,0,1.54,US,1722507395
411,astrakhan,46.3497,48.0408,31.93,25,40,9.0,RU,1722507553
412,togur,58.3631,82.8265,23.54,61,98,3.44,RU,1722507554
413,ratnagiri,16.9833,73.3,27.39,86,100,6.4,IN,1722507555
414,villa juarez,24.6536,-107.5411,25.45,90,100,2.5,MX,1722507558
415,moose jaw,50.4001,-105.5344,16.14,59,20,3.6,CA,1722507559
416,saint-bonnet-de-mure,45.6833,5.0333,29.41,60,0,4.12,FR,1722507560
417,wulingyuan,29.3494,110.5441,25.26,89,94,1.19,CN,1722507561
418,suluru,13.7,80.0167,34.31,44,98,1.42,IN,1722507562
419,kantunilkin,21.0917,-87.45,23.87,100,26,0.97,MX,1722507563
420,iskateley,67.6803,53.1512,25.32,41,34,6.07,RU,1722507564
421,miquelon,47.0975,-56.3814,18.0,97,100,4.79,PM,1722507565
422,laguna,38.421,-121.4238,19.58,67,0,2.57,US,1722507566
423,caleta de carquin,-11.0925,-77.6267,16.27,91,2,4.0,PE,1722507434
424,dakhla,23.6848,-15.958,23.01,78,20,13.89,EH,1722507568
425,klaksvik,62.2266,-6.589,12.51,95,99,8.34,FO,1722507569
426,tateyama,34.9833,139.8667,28.94,84,100,3.53,JP,1722507570
427,guelma,36.4621,7.4261,41.74,13,0,1.44,DZ,1722507572
428,ugoofaaru,5.6667,73.0,28.91,75,100,4.32,MV,1722507573
429,saldanha,-33.0117,17.9442,14.14,78,0,5.02,ZA,1722507574
430,sampit,-2.5333,112.95,26.52,88,86,2.25,ID,1722507575
431,mangai,-4.05,19.5333,37.51,24,39,1.24,CD,1722507576
432,kamuli,0.9472,33.1197,30.27,38,55,1.7,UG,1722507577
433,mansa,29.9833,75.3833,28.62,77,100,1.94,IN,1722507376
434,dolinsk,47.35,142.8,16.4,97,100,3.43,RU,1722507579
435,turpan,42.9333,89.1667,41.57,13,66,3.48,CN,1722507581
436,south hedland,-20.4089,118.5983,22.96,53,96,5.66,AU,1722507582
437,reggane,26.7158,0.1714,40.11,9,0,11.03,DZ,1722507584
438,cape canaveral,28.4058,-80.6048,26.74,90,0,2.57,US,1722507585
439,mangrol,21.1167,70.1167,28.27,83,100,9.28,IN,1722507586
440,arraial do cabo,-22.9661,-42.0278,20.92,64,0,2.06,BR,1722507587
441,sarmiento,-45.5882,-69.07,6.3,73,95,3.44,AR,1722507588
442,dunedin,-45.8742,170.5036,5.45,84,51,1.34,NZ,1722507589
443,pangai,-19.8,-174.35,23.43,67,100,6.14,TO,1722507591
444,giyani,-23.3025,30.7187,20.35,60,98,1.71,ZA,1722507592
445,antofagasta,-23.65,-70.4,14.6,92,52,1.25,CL,1722507067
446,isangel,-19.55,169.2667,21.89,83,100,5.85,VU,1722507594
447,luis correia,-2.8792,-41.6669,23.45,77,8,2.54,BR,1722507595
448,rikaze,29.25,88.8833,24.63,18,9,2.28,CN,1722507596
449,pudasjarvi,65.3833,26.9167,12.54,96,100,3.26,FI,1722507598
450,palikir - national government center,6.9248,158.1611,25.41,94,100,0.0,FM,1722507599
451,viktring,46.5938,14.2697,28.24,57,33,2.06,AT,1722507600
452,shahdol,23.2833,81.35,28.7,75,100,4.93,IN,1722507601
453,amga,60.8953,131.9608,13.99,55,93,2.74,RU,1722507602
454,happy valley-goose bay,53.3168,-60.3315,15.17,94,100,2.57,CA,1722507603
455,portage la prairie,49.9728,-98.2926,16.61,62,0,3.24,CA,1722507604
456,oxelosund,58.6706,17.1015,19.21,52,0,6.17,SE,1722507605
457,saint-pierre,-21.3393,55.4781,24.81,53,0,3.6,RE,1722507606
458,new martinsville,39.6445,-80.8576,22.37,94,0,1.79,US,1722507607
459,keflavik,64.0049,-22.5624,10.24,93,75,2.57,IS,1722507608
460,cangas de onis,43.3284,-5.0718,23.47,82,54,2.85,ES,1722507609
461,thasra,22.8,73.2167,32.28,63,100,7.27,IN,1722507610
462,bokani,9.4333,5.2,28.82,65,77,3.68,NG,1722507611
463,salmon arm,50.6998,-119.3024,15.62,88,5,1.03,CA,1722507613
464,parli vaijnath,18.85,76.5333,29.12,68,100,7.87,IN,1722507614
465,awjilah,29.1081,21.2869,35.3,24,0,4.41,LY,1722507615
466,shingu,33.7333,135.9833,25.76,83,3,0.52,JP,1722507616
467,ghanzi,-21.5667,21.7833,25.96,15,2,9.04,BW,1722507617
468,ha'il,27.5219,41.6907,38.01,15,0,2.06,SA,1722507618
469,las palmas de gran canaria,28.0997,-15.4134,25.8,57,20,15.43,ES,1722507451
470,katsuura,35.1333,140.3,24.19,95,100,4.26,JP,1722507620
471,pedernales,18.0384,-71.744,27.48,70,32,0.89,DO,1722507621
472,howard springs,-12.497,131.047,25.06,73,10,2.45,AU,1722507622
473,diego de almagro,-26.3667,-70.05,12.45,38,100,1.36,CL,1722507623
474,raghunathpur,23.55,86.6667,32.36,65,82,3.87,IN,1722507624
475,rosarito,32.3333,-117.0333,19.05,90,0,2.7,MX,1722507625
476,pisco,-13.7,-76.2167,14.03,94,100,1.03,PE,1722507626
477,hargeysa,9.56,44.065,29.35,35,56,9.3,SO,1722507628
478,port moresby,-9.4431,147.1797,25.68,83,40,5.14,PG,1722507629
479,tamanrasset,22.785,5.5228,30.95,20,0,6.17,DZ,1722507630
480,melfort,52.8667,-104.6177,17.07,77,3,2.57,CA,1722507631
481,san luis de la loma,17.2706,-100.8939,27.11,72,100,1.31,MX,1722507632
482,macheng,31.1783,115.0319,29.18,85,96,2.78,CN,1722507633
483,nhamunda,-2.1861,-56.7131,22.12,69,9,1.15,BR,1722507634
484,selfoss,63.9331,-20.9971,10.33,96,100,0.21,IS,1722507635
485,coban,15.4833,-90.3667,14.58,96,100,0.95,GT,1722507477
486,posto fiscal rolim de moura,-13.0833,-62.2667,19.9,58,0,0.92,BR,1722507637
487,banff,51.1762,-115.5698,11.54,71,100,0.51,CA,1722507638
488,cockburn town,21.4612,-71.1419,28.2,84,100,8.87,TC,1722507493
489,fale old settlement,-9.3852,-171.2468,27.32,70,100,6.63,TK,1722507640
490,antonio enes,-16.2325,39.9086,26.72,50,34,5.74,MZ,1722507642
491,baiyin,36.5583,104.2081,31.04,20,100,8.67,CN,1722507643
492,kerbakhiar,40.1067,46.0383,19.27,75,74,3.23,AZ,1722507644
493,abasolo,20.45,-101.5167,15.11,97,99,1.2,MX,1722507645
494,puerto deseado,-47.7503,-65.8938,7.29,77,100,4.19,AR,1722507646
495,juazeirinho,-6.8167,-38.05,23.16,65,11,2.95,BR,1722507647
496,nova kakhovka,46.7545,33.3486,31.05,18,71,3.79,UA,1722507648
497,suva,-18.1416,178.4415,20.71,100,40,1.54,FJ,1722507649
498,kita,13.0349,-9.4895,27.39,73,98,3.63,ML,1722507650
499,auch,43.65,0.5833,24.08,99,81,3.5,FR,1722507651
500,mabaruma,8.2,-59.7833,21.81,100,88,0.62,GY,1722507652
501,qaisumah,28.3112,46.1273,44.98,6,0,6.69,SA,1722507654
502,parun,35.4207,70.9221,21.82,38,0,4.5,AF,1722507655
503,slave lake,55.2834,-114.769,13.99,72,0,3.09,CA,1722507656
504,irymple,-34.25,142.1667,11.21,46,64,3.72,AU,1722507657
505,xinji,37.9028,115.2036,35.16,57,0,1.64,CN,1722507658
506,tanjung selor,2.8372,117.3642,26.01,96,69,1.17,ID,1722507659
507,xai-xai,-25.0519,33.6442,23.53,60,47,3.67,MZ,1722507660
508,tibati,6.4667,12.6333,23.19,82,100,1.68,CM,1722507661
509,mahina,-17.5065,-149.489,18.87,68,0,2.06,PF,1722507662
510,kruisfontein,-34.0033,24.7314,18.27,29,0,1.76,ZA,1722507663
511,kailua-kona,19.6406,-155.9956,22.48,95,100,2.53,US,1722507664
512,buala,-8.145,159.5921,26.11,85,51,1.45,SB,1722507665
513,fada,7.25,4.0667,25.73,84,81,2.22,NG,1722507666
514,malanje,-9.5402,16.341,30.63,27,5,0.96,AO,1722507668
515,porto belo,-27.1578,-48.5531,17.17,100,89,2.28,BR,1722507669
516,chikmagalur,13.3167,75.7833,21.33,91,100,4.39,IN,1722507670
517,meulaboh,4.1363,96.1285,28.71,74,100,3.01,ID,1722507671
518,pahrump,36.2083,-115.9839,26.06,23,0,1.75,US,1722507672
519,paghman,34.5875,68.9533,28.96,15,0,5.21,AF,1722507673
520,holetown,13.1867,-59.6381,25.31,73,0,2.19,BB,1722507674
521,salahonda,2.1019,-78.7217,25.74,82,98,7.31,CO,1722507675
522,galliano,29.4422,-90.2992,25.24,94,40,0.0,US,1722507676
523,long beach,33.767,-118.1892,17.66,87,0,2.57,US,1722507310
524,khandyga,62.6667,135.6,10.85,74,92,2.15,RU,1722507678
525,lewiston orchards,46.3804,-116.9754,20.51,58,0,2.06,US,1722507680
526,nova vicosa,-17.8919,-39.3719,22.59,85,30,6.45,BR,1722507681
527,sinabang,2.4803,96.3801,30.0,68,90,1.92,ID,1722507682
528,kudahuvadhoo,2.6708,72.8944,28.77,71,88,1.41,MV,1722507683
529,kembe,4.6228,21.8865,23.99,81,100,1.46,CF,1722507684
530,hilo,19.7297,-155.09,20.05,87,20,3.09,US,1722507685
531,island harbour,50.724,-1.2758,25.05,71,32,1.34,GB,1722507687
532,al burayqah,30.4062,19.5739,30.29,42,0,4.99,LY,1722507688
533,yeppoon,-23.1333,150.7333,14.03,71,0,3.59,AU,1722507689
534,daru,-9.0763,143.2092,24.63,89,100,8.62,PG,1722507690
535,turinsk,58.0458,63.696,21.18,71,81,4.76,RU,1722507691
536,nar'yan-mar,67.6713,53.087,25.33,41,34,6.14,RU,1722507692
537,divnomorskoye,44.5011,38.1353,26.5,50,16,4.13,RU,1722507693
538,gislaved,57.3044,13.5408,23.39,34,100,0.2,SE,1722507694
539,santyoku,37.4406,129.1708,29.6,76,24,2.14,KR,1722507695
540,agboville,5.928,-4.2132,24.29,88,100,2.46,CI,1722507696
541,basoko,1.2391,23.616,32.69,46,36,0.91,CD,1722507697
542,bogale,16.2833,95.4,29.11,75,100,5.68,MM,1722507698
543,puerto santa,-8.9906,-78.6456,16.4,89,0,1.53,PE,1722507700
544,flying fish cove,-10.4217,105.6791,25.82,78,20,3.6,CX,1722507701
545,rio grande,-32.035,-52.0986,13.3,93,53,4.72,BR,1722507233
546,shimoda,34.6667,138.95,26.17,89,99,2.94,JP,1722507703
547,solleftea,63.1667,17.2667,18.92,55,97,5.11,SE,1722507704
548,nekrasovka,48.3525,135.2325,21.01,94,75,5.0,RU,1722507705
549,faya-largeau,17.9257,19.1043,31.15,53,96,2.96,TD,1722507707
550,businga,3.3333,20.8833,32.8,45,90,1.42,CD,1722507708
551,papao,-17.75,-149.55,18.82,61,4,6.61,PF,1722507709
552,krasnyy chikoy,50.3643,108.7512,19.61,91,100,0.87,RU,1722507710
553,dingcheng,32.1272,115.0394,29.05,85,93,4.17,CN,1722507711
554,boali,4.8005,18.1275,31.84,43,18,2.63,CF,1722507712
555,harstad,68.799,16.5293,13.76,97,100,6.26,NO,1722507714
556,cidade velha,14.9167,-23.6167,27.26,65,40,5.14,CV,1722507715
557,caldwell,43.6629,-116.6874,18.59,67,0,0.0,US,1722507716
558,gray,35.4167,-100.802,24.89,43,92,4.61,US,1722507319
559,sechura,-5.5569,-80.8222,17.12,82,6,2.99,PE,1722507718
560,lensk,60.7253,114.9278,19.79,33,62,3.23,RU,1722507719
561,bryant,34.5959,-92.4891,24.39,93,0,2.07,US,1722507720
562,dikwa,12.024,13.9165,22.9,92,100,4.43,NG,1722507721
563,mana,5.6592,-53.7767,25.53,82,1,2.39,GF,1722507722
564,zabol,32.25,67.25,35.25,13,8,6.64,AF,1722507723
565,muroto-misakicho,33.2833,134.15,28.82,80,10,3.09,JP,1722507724
566,kingscliff,-28.2667,153.5667,13.68,67,1,3.09,AU,1722507726
567,charles town,39.289,-77.8597,19.86,89,0,0.0,US,1722507698
568,francistown,-21.17,27.5079,25.15,31,8,5.61,BW,1722507728
569,nagqu,31.5,92.0,17.98,30,95,2.97,CN,1722507729
570,nanao,37.05,136.9667,26.39,89,5,0.93,JP,1722507730
571,qamdo,31.1667,97.2333,19.77,30,72,2.35,CN,1722507731
572,baker city,44.7749,-117.8344,13.84,82,0,0.0,US,1722507732
573,sassandra,4.95,-6.0833,23.41,93,100,3.94,CI,1722507733
574,novo aripuana,-5.1206,-60.3797,22.42,56,22,0.6,BR,1722507734
575,petropavlovsk-kamchatsky,53.0452,158.6483,13.33,100,75,3.0,RU,1722507735
576,itoman,26.1247,127.6694,29.91,81,20,4.63,JP,1722507736
577,yokadouma,3.5167,15.05,30.8,42,51,2.08,CM,1722507737
578,zell am see,47.3256,12.7944,25.67,63,97,1.11,AT,1722507738
579,tocopilla,-22.092,-70.1979,15.51,76,2,2.67,CL,1722507740
580,yung shue wan,22.2333,114.1167,30.61,82,1,5.57,HK,1722507741
581,sumbawanga,-7.9667,31.6167,23.89,35,0,4.12,TZ,1722507742
582,sao vicente,-23.9631,-46.3919,20.71,89,2,0.92,BR,1722507743
583,gaspe,48.8334,-64.4819,24.12,78,75,2.06,CA,1722507744
584,mossel bay,-34.1831,22.146,15.96,48,0,1.03,ZA,1722507745
585,axim,4.8699,-2.2405,24.6,85,99,4.78,GH,1722507746
586,vanimo,-2.6741,141.3028,26.56,91,58,2.36,PG,1722507747
587,san patricio,28.017,-97.5169,26.5,85,0,2.89,US,1722507748
588,mariana,-20.3778,-43.4161,14.29,93,60,0.83,BR,1722507749
589,pukchil-lodongjagu,40.2019,125.7483,24.36,96,86,1.83,KP,1722507750
590,eduardo castex,-35.915,-64.2945,12.34,95,100,2.99,AR,1722507751
591,curaca,-8.9903,-39.9094,20.88,73,35,6.29,BR,1722507753
592,higuera de zaragoza,25.95,-109.2833,27.29,79,99,2.28,MX,1722507754
593,oamaru,-45.0784,170.9801,1.88,84,13,2.04,NZ,1722507755
594,noshiro,40.2039,140.0242,24.46,86,15,1.16,JP,1722507756
595,kill devil hills,36.0307,-75.676,25.14,96,0,3.09,US,1722507758
596,raja,8.4596,25.678,28.33,56,87,3.78,SS,1722507759
597,nadi,-17.8,177.4167,24.0,78,40,2.06,FJ,1722507760
598,necochea,-38.5473,-58.7368,13.46,92,100,4.89,AR,1722507657
599,ulsteinvik,62.3432,5.8487,16.99,67,55,2.24,NO,1722507762
600,oued el abtal,35.456,0.6878,40.0,16,3,1.59,DZ,1722507763
601,port douglas,-16.4833,145.4667,20.56,80,79,6.09,AU,1722507764
602,imperatriz,-5.5264,-47.4917,23.03,53,0,1.03,BR,1722507530
603,coos bay,43.3665,-124.2179,14.26,98,29,0.43,US,1722507767
